<?xml version="1.0" encoding="UTF-8"?><response xmlns:xsd="http://www.w3.org/2001/XMLSchema" xmlns:xsi="http://www.w3.org/2001/XMLSchema-instance" xsi:noNamespaceSchemaLocation="https://aviationweather.gov/api/schema/stations2_0.xsd" version="2.0"><request_index>1757117538</request_index><data_source name="stations"/><request type="retrieve"/><errors/><warnings/><time_taken_ms>0</time_taken_ms><data num_results="165"><Station><station_id>K46U</station_id><iata_id>-</iata_id><faa_id>46U</faa_id><latitude>43.1810</latitude><longitude>-111.0370</longitude><elevation_m>1718</elevation_m><site>Alpine Arpt</site><state>WY</state><country>US</country><site_type><METAR/></site_type></Station><Station><station_id>KAAT</station_id><iata_id>-</iata_id><faa_id>AAT</faa_id><latitude>41.4836</latitude><longitude>-120.5615</longitude><elevation_m>1336</elevation_m><site>Alturas Muni</site><state>CA</state><country>US</country><site_type><METAR/></site_type></Station><Station><station_id>KABE</station_id><iata_id>ABE</iata_id><wmo_id>72517</wmo_id><faa_id>ABE</faa_id><latitude>40.6580</latitude><longitude>-75.4347</longitude><elevation_m>117</elevation_m><site>Allentown/Lehigh Valley Intl</site><state>PA</state><country>US</country><site_type><METAR/><TAF/></site_type></Station><Station><station_id>KABI</station_id><iata_id>ABI</iata_id><wmo_id>72266</wmo_id><faa_id>ABI</faa_id><latitude>32.4106</latitude><longitude>-99.6821</longitude><elevation_m>543</elevation_m><site>Abilene Rgnl</site><state>TX</state><country>US</country><site_type><METAR/><TAF/></site_type></Station><Station><station_id>KABQ</station_id><iata_id>ABQ</iata_id><wmo_id>72365</wmo_id><faa_id>ABQ</faa_id><latitude>35.0419</latitude><longitude>-106.6154</longitude><elevation_m>1620</elevation_m><site>Albuquerque Intl</site><state>NM</state><country>US</country><site_type><WFO/><METAR/><TAF/></site_type></Station><Station><station_id>KACV</station_id><iata_id>ACV</iata_id><faa_id>ACV</faa_id><latitude>40.9784</latitude><longitude>-124.1048</longitude><elevation_m>63</elevation_m><site>Arcata Arpt</site><state>CA</state><country>US</country><site_type><METAR/><TAF/></site_type></Station><Station><station_id>KACY</station_id><iata_id>ACY</iata_id><wmo_id>72407</wmo_id><faa_id>ACY</faa_id><latitude>39.4520</latitude><longitude>-74.5670</longitude><elevation_m>18</elevation_m><site>Atlantic City Intl</site><state>NJ</state><country>US</country><site_type><METAR/><TAF/></site_type></Station><Station><station_id>KAFO</station_id><iata_id>AFO</iata_id><faa_id>AFO</faa_id><latitude>42.7139</latitude><longitude>-110.9443</longitude><elevation_m>1881</elevation_m><site>Afton Muni</site><state>WY</state><country>US</country><site_type><METAR/></site_type></Station><Station><station_id>KALB</station_id><iata_id>ALB</iata_id><wmo_id>72518</wmo_id><faa_id>ALB</faa_id><latitude>42.7473</latitude><longitude>-73.7991</longitude><elevation_m>82</elevation_m><site>Albany Intl</site><state>NY</state><country>US</country><site_type><METAR/><TAF/></site_type></Station><Station><station_id>KAMA</station_id><iata_id>AMA</iata_id><wmo_id>72363</wmo_id><faa_id>AMA</faa_id><latitude>35.2203</latitude><longitude>-101.7173</longitude><elevation_m>1102</elevation_m><site>Amarillo Intl Arpt</site><state>TX</state><country>US</country><site_type><NEXRAD/><WFO/><METAR/><TAF/></site_type></Station><Station><station_id>KAST</station_id><iata_id>AST</iata_id><wmo_id>72791</wmo_id><faa_id>AST</faa_id><latitude>46.1570</latitude><longitude>-123.8833</longitude><elevation_m>3</elevation_m><site>Astoria Rgnl</site><state>OR</state><country>US</country><site_type><METAR/><TAF/></site_type></Station><Station><station_id>KASX</station_id><iata_id>ASX</iata_id><faa_id>ASX</faa_id><latitude>46.5468</latitude><longitude>-90.9184</longitude><elevation_m>249</elevation_m><site>Ashland/Kennedy Mem Arpt</site><state>WI</state><country>US</country><site_type><METAR/></site_type></Station><Station><station_id>KATL</station_id><iata_id>ATL</iata_id><wmo_id>72219</wmo_id><faa_id>ATL</faa_id><latitude>33.6297</latitude><longitude>-84.4422</longitude><elevation_m>309</elevation_m><site>Atlanta/Hartsfield-Jackson Intl</site><state>GA</state><country>US</country><site_type><METAR/><TAF/></site_type></Station><Station><station_id>KAVL</station_id><iata_id>AVL</iata_id><wmo_id>72315</wmo_id><faa_id>AVL</faa_id><latitude>35.4318</latitude><longitude>-82.5379</longitude><elevation_m>646</elevation_m><site>Asheville Muni</site><state>NC</state><country>US</country><site_type><METAR/><TAF/></site_type></Station><Station><station_id>KBCE</station_id><iata_id>BCE</iata_id><faa_id>BCE</faa_id><latitude>37.7013</latitude><longitude>-112.1490</longitude><elevation_m>2311</elevation_m><site>Bryce Canyon Arpt</site><state>UT</state><country>US</country><site_type><METAR/><TAF/></site_type></Station><Station><station_id>KBDL</station_id><iata_id>BDL</iata_id><wmo_id>72508</wmo_id><faa_id>BDL</faa_id><latitude>41.9374</latitude><longitude>-72.6820</longitude><elevation_m>52</elevation_m><site>Hartford/Bradley Intl</site><state>CT</state><country>US</country><site_type><METAR/><TAF/></site_type></Station><Station><station_id>KBGR</station_id><iata_id>BGR</iata_id><wmo_id>72607</wmo_id><faa_id>BGR</faa_id><latitude>44.7979</latitude><longitude>-68.8195</longitude><elevation_m>45</elevation_m><site>Bangor Intl Arpt</site><state>ME</state><country>US</country><site_type><METAR/><TAF/></site_type></Station><Station><station_id>KBHM</station_id><iata_id>BHM</iata_id><wmo_id>72228</wmo_id><faa_id>BHM</faa_id><latitude>33.5655</latitude><longitude>-86.7449</longitude><elevation_m>191</elevation_m><site>Birmingham Intl</site><state>AL</state><country>US</country><site_type><METAR/><TAF/></site_type></Station><Station><station_id>KBIL</station_id><iata_id>BIL</iata_id><wmo_id>72677</wmo_id><faa_id>BIL</faa_id><latitude>45.8072</latitude><longitude>-108.5462</longitude><elevation_m>1089</elevation_m><site>Billings/Logan Intl</site><state>MT</state><country>US</country><site_type><METAR/><TAF/></site_type></Station><Station><station_id>KBIS</station_id><iata_id>BIS</iata_id><wmo_id>72764</wmo_id><faa_id>BIS</faa_id><latitude>46.7823</latitude><longitude>-100.7575</longitude><elevation_m>506</elevation_m><site>Bismarck Arpt</site><state>ND</state><country>US</country><site_type><NEXRAD/><WFO/><METAR/><TAF/></site_type></Station><Station><station_id>KBNA</station_id><iata_id>BNA</iata_id><wmo_id>72327</wmo_id><faa_id>BNA</faa_id><latitude>36.1105</latitude><longitude>-86.6881</longitude><elevation_m>168</elevation_m><site>Nashville Intl</site><state>TN</state><country>US</country><site_type><METAR/><TAF/></site_type></Station><Station><station_id>KBNO</station_id><iata_id>BNO</iata_id><wmo_id>72683</wmo_id><faa_id>BNO</faa_id><latitude>43.5949</latitude><longitude>-118.9579</longitude><elevation_m>1263</elevation_m><site>Burns Muni</site><state>OR</state><country>US</country><site_type><METAR/><TAF/></site_type></Station><Station><station_id>KBOI</station_id><iata_id>BOI</iata_id><wmo_id>72681</wmo_id><faa_id>BOI</faa_id><latitude>43.5670</latitude><longitude>-116.2406</longitude><elevation_m>860</elevation_m><site>Boise Arpt</site><state>ID</state><country>US</country><site_type><WFO/><METAR/><TAF/></site_type></Station><Station><station_id>KBOS</station_id><iata_id>BOS</iata_id><wmo_id>72509</wmo_id><faa_id>BOS</faa_id><latitude>42.3606</latitude><longitude>-71.0097</longitude><elevation_m>4</elevation_m><site>Boston/Logan Intl</site><state>MA</state><country>US</country><site_type><METAR/><TAF/></site_type></Station><Station><station_id>KBRO</station_id><iata_id>BRO</iata_id><wmo_id>72250</wmo_id><faa_id>BRO</faa_id><latitude>25.9146</latitude><longitude>-97.4231</longitude><elevation_m>6</elevation_m><site>Brownsville Intl</site><state>TX</state><country>US</country><site_type><NEXRAD/><WFO/><METAR/><TAF/></site_type></Station><Station><station_id>KBTR</station_id><iata_id>BTR</iata_id><wmo_id>72232</wmo_id><faa_id>BTR</faa_id><latitude>30.5378</latitude><longitude>-91.1468</longitude><elevation_m>20</elevation_m><site>Baton Rouge/Ryan Fld</site><state>LA</state><country>US</country><site_type><METAR/><TAF/></site_type></Station><Station><station_id>KBTV</station_id><iata_id>BTV</iata_id><wmo_id>72617</wmo_id><faa_id>BTV</faa_id><latitude>44.4682</latitude><longitude>-73.1499</longitude><elevation_m>101</elevation_m><site>Burlington Intl</site><state>VT</state><country>US</country><site_type><WFO/><METAR/><TAF/></site_type></Station><Station><station_id>KBUF</station_id><iata_id>BUF</iata_id><wmo_id>72528</wmo_id><faa_id>BUF</faa_id><latitude>42.9400</latitude><longitude>-78.7361</longitude><elevation_m>217</elevation_m><site>Buffalo-Niagara Intl</site><state>NY</state><country>US</country><site_type><NEXRAD/><WFO/><METAR/><TAF/></site_type></Station><Station><station_id>KBWI</station_id><iata_id>BWI</iata_id><wmo_id>72406</wmo_id><faa_id>BWI</faa_id><latitude>39.1733</latitude><longitude>-76.6840</longitude><elevation_m>42</elevation_m><site>Baltimore-Washington Intl</site><state>MD</state><country>US</country><site_type><METAR/><TAF/></site_type></Station><Station><station_id>KCAE</station_id><iata_id>CAE</iata_id><wmo_id>72310</wmo_id><faa_id>CAE</faa_id><latitude>33.9422</latitude><longitude>-81.1180</longitude><elevation_m>69</elevation_m><site>Columbia Metro</site><state>SC</state><country>US</country><site_type><NEXRAD/><WFO/><METAR/><TAF/></site_type></Station><Station><station_id>KCEC</station_id><iata_id>CEC</iata_id><faa_id>CEC</faa_id><latitude>41.7836</latitude><longitude>-124.2380</longitude><elevation_m>17</elevation_m><site>Crescent City/McNama</site><state>CA</state><country>US</country><site_type><METAR/><TAF/></site_type></Station><Station><station_id>KCHA</station_id><iata_id>CHA</iata_id><wmo_id>72324</wmo_id><faa_id>CHA</faa_id><latitude>35.0336</latitude><longitude>-85.2004</longitude><elevation_m>203</elevation_m><site>Chattanooga Metro</site><state>TN</state><country>US</country><site_type><METAR/><TAF/></site_type></Station><Station><station_id>KCHS</station_id><iata_id>CHS</iata_id><wmo_id>72208</wmo_id><faa_id>CHS</faa_id><latitude>32.8995</latitude><longitude>-80.0407</longitude><elevation_m>12</elevation_m><site>Charleston Intl</site><state>SC</state><country>US</country><site_type><WFO/><METAR/><TAF/></site_type></Station><Station><station_id>KCID</station_id><iata_id>CID</iata_id><wmo_id>72545</wmo_id><faa_id>CID</faa_id><latitude>41.8829</latitude><longitude>-91.7246</longitude><elevation_m>257</elevation_m><site>Cedar Rapids/E Iowa Arpt</site><state>IA</state><country>US</country><site_type><METAR/><TAF/></site_type></Station><Station><station_id>KCKC</station_id><iata_id>GRM</iata_id><faa_id>CKC</faa_id><latitude>47.8366</latitude><longitude>-90.3864</longitude><elevation_m>544</elevation_m><site>Grand Marais Muni</site><state>MN</state><country>US</country><site_type><METAR/></site_type></Station><Station><station_id>KCLE</station_id><iata_id>CLE</iata_id><wmo_id>72524</wmo_id><faa_id>CLE</faa_id><latitude>41.4057</latitude><longitude>-81.8519</longitude><elevation_m>237</elevation_m><site>Cleveland/Hopkins Intl</site><state>OH</state><country>US</country><site_type><NEXRAD/><WFO/><METAR/><TAF/></site_type></Station><Station><station_id>KCLT</station_id><iata_id>CLT</iata_id><wmo_id>72314</wmo_id><faa_id>CLT</faa_id><latitude>35.2225</latitude><longitude>-80.9543</longitude><elevation_m>223</elevation_m><site>Charlotte/Douglas Intl</site><state>NC</state><country>US</country><site_type><METAR/><TAF/></site_type></Station><Station><station_id>KCMH</station_id><iata_id>CMH</iata_id><wmo_id>72428</wmo_id><faa_id>CMH</faa_id><latitude>39.9907</latitude><longitude>-82.8770</longitude><elevation_m>257</elevation_m><site>Columbus/Glenn Intl</site><state>OH</state><country>US</country><site_type><METAR/><TAF/></site_type></Station><Station><station_id>KCOE</station_id><iata_id>COE</iata_id><faa_id>COE</faa_id><latitude>47.7719</latitude><longitude>-116.8332</longitude><elevation_m>693</elevation_m><site>Coeur DAlene Arpt</site><state>ID</state><country>US</country><site_type><METAR/><TAF/></site_type></Station><Station><station_id>KCOS</station_id><iata_id>COS</iata_id><wmo_id>72466</wmo_id><faa_id>COS</faa_id><latitude>38.8095</latitude><longitude>-104.6887</longitude><elevation_m>1886</elevation_m><site>Colorado Spring Arpt</site><state>CO</state><country>US</country><site_type><METAR/><TAF/></site_type></Station><Station><station_id>KCPR</station_id><iata_id>CPR</iata_id><wmo_id>72569</wmo_id><faa_id>CPR</faa_id><latitude>42.8978</latitude><longitude>-106.4736</longitude><elevation_m>1623</elevation_m><site>Casper/Natrona Cnty</site><state>WY</state><country>US</country><site_type><METAR/><TAF/></site_type></Station><Station><station_id>KCRP</station_id><iata_id>CRP</iata_id><wmo_id>72251</wmo_id><faa_id>CRP</faa_id><latitude>27.7734</latitude><longitude>-97.5130</longitude><elevation_m>11</elevation_m><site>Corpus Christi Intl</site><state>TX</state><country>US</country><site_type><NEXRAD/><WFO/><METAR/><TAF/></site_type></Station><Station><station_id>KCVG</station_id><iata_id>CVG</iata_id><wmo_id>72421</wmo_id><faa_id>CVG</faa_id><latitude>39.0444</latitude><longitude>-84.6724</longitude><elevation_m>264</elevation_m><site>Cincinnati Intl</site><state>KY</state><country>US</country><site_type><METAR/><TAF/></site_type></Station><Station><station_id>KCYS</station_id><iata_id>CYS</iata_id><wmo_id>72564</wmo_id><faa_id>CYS</faa_id><latitude>41.1579</latitude><longitude>-104.8081</longitude><elevation_m>1868</elevation_m><site>Cheyenne Rgnl</site><state>WY</state><country>US</country><site_type><NEXRAD/><WFO/><METAR/><TAF/></site_type></Station><Station><station_id>KDAY</station_id><iata_id>DAY</iata_id><wmo_id>72429</wmo_id><faa_id>DAY</faa_id><latitude>39.9064</latitude><longitude>-84.2185</longitude><elevation_m>303</elevation_m><site>Dayton/Cox Intl</site><state>OH</state><country>US</country><site_type><METAR/><TAF/></site_type></Station><Station><station_id>KDCA</station_id><iata_id>DCA</iata_id><wmo_id>72405</wmo_id><faa_id>DCA</faa_id><latitude>38.8472</latitude><longitude>-77.0345</longitude><elevation_m>4</elevation_m><site>Washington/Reagan-National Arpt</site><state>VA</state><country>US</country><site_type><METAR/><TAF/></site_type></Station><Station><station_id>KDEN</station_id><iata_id>DEN</iata_id><wmo_id>72565</wmo_id><faa_id>DEN</faa_id><latitude>39.8466</latitude><longitude>-104.6562</longitude><elevation_m>1656</elevation_m><site>Denver Intl</site><state>CO</state><country>US</country><site_type><METAR/><TAF/></site_type></Station><Station><station_id>KDSM</station_id><iata_id>DSM</iata_id><wmo_id>72546</wmo_id><faa_id>DSM</faa_id><latitude>41.5339</latitude><longitude>-93.6531</longitude><elevation_m>286</elevation_m><site>Des Moines Intl</site><state>IA</state><country>US</country><site_type><METAR/><TAF/></site_type></Station><Station><station_id>KDTW</station_id><iata_id>DTW</iata_id><wmo_id>72537</wmo_id><faa_id>DTW</faa_id><latitude>42.2311</latitude><longitude>-83.3312</longitude><elevation_m>192</elevation_m><site>Detroit/Metro Wayne Cnty</site><state>MI</state><country>US</country><site_type><METAR/><TAF/></site_type></Station><Station><station_id>KECS</station_id><iata_id>ECS</iata_id><faa_id>ECS</faa_id><latitude>43.8845</latitude><longitude>-104.3120</longitude><elevation_m>1273</elevation_m><site>Newcastle/Mondell Arpt</site><state>WY</state><country>US</country><site_type><METAR/></site_type></Station><Station><station_id>KELP</station_id><iata_id>ELP</iata_id><wmo_id>72270</wmo_id><faa_id>ELP</faa_id><latitude>31.8123</latitude><longitude>-106.3774</longitude><elevation_m>1205</elevation_m><site>El Paso Intl</site><state>TX</state><country>US</country><site_type><METAR/><TAF/></site_type></Station><Station><station_id>KEVV</station_id><iata_id>EVV</iata_id><wmo_id>72432</wmo_id><faa_id>EVV</faa_id><latitude>38.0502</latitude><longitude>-87.5147</longitude><elevation_m>123</elevation_m><site>Evansville Rgnl</site><state>IN</state><country>US</country><site_type><METAR/><TAF/></site_type></Station><Station><station_id>KEWR</station_id><iata_id>EWR</iata_id><wmo_id>72502</wmo_id><faa_id>EWR</faa_id><latitude>40.6828</latitude><longitude>-74.1692</longitude><elevation_m>2</elevation_m><site>Newark Intl</site><state>NJ</state><country>US</country><site_type><METAR/><TAF/></site_type></Station><Station><station_id>KEYW</station_id><iata_id>EYW</iata_id><wmo_id>72201</wmo_id><faa_id>EYW</faa_id><latitude>24.5571</latitude><longitude>-81.7554</longitude><elevation_m>1</elevation_m><site>Key West Intl</site><state>FL</state><country>US</country><site_type><METAR/><TAF/></site_type></Station><Station><station_id>KFAT</station_id><iata_id>FAT</iata_id><wmo_id>72389</wmo_id><faa_id>FAT</faa_id><latitude>36.7800</latitude><longitude>-119.7202</longitude><elevation_m>102</elevation_m><site>Fresno/Yosemite Intl</site><state>CA</state><country>US</country><site_type><METAR/><TAF/></site_type></Station><Station><station_id>KFAY</station_id><iata_id>FAY</iata_id><faa_id>FAY</faa_id><latitude>34.9895</latitude><longitude>-78.8800</longitude><elevation_m>57</elevation_m><site>Fayetteville Rgnl</site><state>NC</state><country>US</country><site_type><METAR/><TAF/></site_type></Station><Station><station_id>KFLG</station_id><iata_id>FLG</iata_id><wmo_id>72375</wmo_id><faa_id>FLG</faa_id><latitude>35.1443</latitude><longitude>-111.6664</longitude><elevation_m>2134</elevation_m><site>Flagstaff/Pulliam Arpt</site><state>AZ</state><country>US</country><site_type><METAR/><TAF/></site_type></Station><Station><station_id>KFMN</station_id><iata_id>FMN</iata_id><faa_id>FMN</faa_id><latitude>36.7435</latitude><longitude>-108.2293</longitude><elevation_m>1677</elevation_m><site>Farmington/Four Corners Rgnl</site><state>NM</state><country>US</country><site_type><METAR/><TAF/></site_type></Station><Station><station_id>KFNT</station_id><iata_id>FNT</iata_id><wmo_id>72637</wmo_id><faa_id>FNT</faa_id><latitude>42.9669</latitude><longitude>-83.7500</longitude><elevation_m>235</elevation_m><site>Flint/Bishop Intl</site><state>MI</state><country>US</country><site_type><METAR/><TAF/></site_type></Station><Station><station_id>KFTW</station_id><iata_id>FTW</iata_id><wmo_id>74739</wmo_id><faa_id>FTW</faa_id><latitude>32.8248</latitude><longitude>-97.3640</longitude><elevation_m>213</elevation_m><site>Fort Worth/Meacham Intl</site><state>TX</state><country>US</country><site_type><METAR/><TAF/></site_type></Station><Station><station_id>KFVE</station_id><iata_id>WFK</iata_id><faa_id>FVE</faa_id><latitude>47.2852</latitude><longitude>-68.3072</longitude><elevation_m>299</elevation_m><site>Frenchville/N Aroostook Rgnl</site><state>ME</state><country>US</country><site_type><METAR/><TAF/></site_type></Station><Station><station_id>KFWA</station_id><iata_id>FWA</iata_id><wmo_id>72533</wmo_id><faa_id>FWA</faa_id><latitude>40.9725</latitude><longitude>-85.2064</longitude><elevation_m>243</elevation_m><site>Fort Wayne Intl</site><state>IN</state><country>US</country><site_type><METAR/><TAF/></site_type></Station><Station><station_id>KGEG</station_id><iata_id>GEG</iata_id><wmo_id>72785</wmo_id><faa_id>GEG</faa_id><latitude>47.6217</latitude><longitude>-117.5280</longitude><elevation_m>718</elevation_m><site>Spokane Intl</site><state>WA</state><country>US</country><site_type><METAR/><TAF/></site_type></Station><Station><station_id>KGGW</station_id><iata_id>GGW</iata_id><wmo_id>72768</wmo_id><faa_id>GGW</faa_id><latitude>48.2142</latitude><longitude>-106.6214</longitude><elevation_m>698</elevation_m><site>Glasgow Intl Arpt</site><state>MT</state><country>US</country><site_type><NEXRAD/><WFO/><METAR/><TAF/></site_type></Station><Station><station_id>KGPI</station_id><iata_id>FCA</iata_id><wmo_id>72779</wmo_id><faa_id>GPI</faa_id><latitude>48.3041</latitude><longitude>-114.2643</longitude><elevation_m>903</elevation_m><site>Kalispell/Glacier Park Intl</site><state>MT</state><country>US</country><site_type><METAR/><TAF/></site_type></Station><Station><station_id>KGRB</station_id><iata_id>GRB</iata_id><wmo_id>72645</wmo_id><faa_id>GRB</faa_id><latitude>44.4796</latitude><longitude>-88.1370</longitude><elevation_m>209</elevation_m><site>Green Bay/Straubel Intl</site><state>WI</state><country>US</country><site_type><NEXRAD/><WFO/><METAR/><TAF/></site_type></Station><Station><station_id>KGRR</station_id><iata_id>GRR</iata_id><wmo_id>72635</wmo_id><faa_id>GRR</faa_id><latitude>42.8821</latitude><longitude>-85.5230</longitude><elevation_m>239</elevation_m><site>Grand Rapids Intl</site><state>MI</state><country>US</country><site_type><NEXRAD/><WFO/><METAR/><TAF/></site_type></Station><Station><station_id>KGSO</station_id><iata_id>GSO</iata_id><wmo_id>72317</wmo_id><faa_id>GSO</faa_id><latitude>36.0969</latitude><longitude>-79.9432</longitude><elevation_m>275</elevation_m><site>Greensboro Intl</site><state>NC</state><country>US</country><site_type><METAR/><TAF/></site_type></Station><Station><station_id>KGSP</station_id><iata_id>GSP</iata_id><wmo_id>72312</wmo_id><faa_id>GSP</faa_id><latitude>34.8842</latitude><longitude>-82.2209</longitude><elevation_m>285</elevation_m><site>Greenville-Spartanburg Intl</site><state>SC</state><country>US</country><site_type><NEXRAD/><WFO/><METAR/><TAF/></site_type></Station><Station><station_id>KHDN</station_id><iata_id>HDN</iata_id><wmo_id>72571</wmo_id><faa_id>HDN</faa_id><latitude>40.4842</latitude><longitude>-107.2296</longitude><elevation_m>2012</elevation_m><site>Hayden/Yampa Valley Arpt</site><state>CO</state><country>US</country><site_type><METAR/><TAF/></site_type></Station><Station><station_id>KHII</station_id><iata_id>HII</iata_id><faa_id>HII</faa_id><latitude>34.5659</latitude><longitude>-114.3522</longitude><elevation_m>241</elevation_m><site>Lake Havasu City Arpt</site><state>AZ</state><country>US</country><site_type><METAR/></site_type></Station><Station><station_id>KHOU</station_id><iata_id>HOU</iata_id><wmo_id>72244</wmo_id><faa_id>HOU</faa_id><latitude>29.6458</latitude><longitude>-95.2821</longitude><elevation_m>13</elevation_m><site>Houston/Hobby Arpt</site><state>TX</state><country>US</country><site_type><METAR/><TAF/></site_type></Station><Station><station_id>KHSV</station_id><iata_id>HSV</iata_id><wmo_id>72323</wmo_id><faa_id>HSV</faa_id><latitude>34.6441</latitude><longitude>-86.7862</longitude><elevation_m>190</elevation_m><site>Huntsville Intl</site><state>AL</state><country>US</country><site_type><METAR/><TAF/></site_type></Station><Station><station_id>KHVR</station_id><iata_id>HVR</iata_id><wmo_id>72777</wmo_id><faa_id>HVR</faa_id><latitude>48.5425</latitude><longitude>-109.7644</longitude><elevation_m>789</elevation_m><site>Havre/City Arpt</site><state>MT</state><country>US</country><site_type><METAR/><TAF/></site_type></Station><Station><station_id>KIAH</station_id><iata_id>IAH</iata_id><wmo_id>72243</wmo_id><faa_id>IAH</faa_id><latitude>29.9844</latitude><longitude>-95.3607</longitude><elevation_m>27</elevation_m><site>Houston/Bush Intl</site><state>TX</state><country>US</country><site_type><METAR/><TAF/></site_type></Station><Station><station_id>KICT</station_id><iata_id>ICT</iata_id><wmo_id>72450</wmo_id><faa_id>ICT</faa_id><latitude>37.6475</latitude><longitude>-97.4300</longitude><elevation_m>428</elevation_m><site>Wichita/Eisenhower Arpt</site><state>KS</state><country>US</country><site_type><NEXRAD/><WFO/><METAR/><TAF/></site_type></Station><Station><station_id>KIGM</station_id><iata_id>IGM</iata_id><wmo_id>72370</wmo_id><faa_id>IGM</faa_id><latitude>35.2575</latitude><longitude>-113.9341</longitude><elevation_m>1045</elevation_m><site>Kingman Arpt</site><state>AZ</state><country>US</country><site_type><METAR/></site_type></Station><Station><station_id>KIND</station_id><iata_id>IND</iata_id><wmo_id>72438</wmo_id><faa_id>IND</faa_id><latitude>39.7252</latitude><longitude>-86.2816</longitude><elevation_m>242</elevation_m><site>Indianapolis Intl</site><state>IN</state><country>US</country><site_type><NEXRAD/><WFO/><METAR/><TAF/></site_type></Station><Station><station_id>KJAN</station_id><iata_id>JAN</iata_id><wmo_id>72235</wmo_id><faa_id>JAN</faa_id><latitude>32.3198</latitude><longitude>-90.0778</longitude><elevation_m>92</elevation_m><site>Jackson/Evers Intl</site><state>MS</state><country>US</country><site_type><METAR/><TAF/></site_type></Station><Station><station_id>KJAX</station_id><iata_id>JAX</iata_id><wmo_id>72206</wmo_id><faa_id>JAX</faa_id><latitude>30.4953</latitude><longitude>-81.6937</longitude><elevation_m>8</elevation_m><site>Jacksonville Intl</site><state>FL</state><country>US</country><site_type><NEXRAD/><WFO/><METAR/><TAF/></site_type></Station><Station><station_id>KJFK</station_id><iata_id>JFK</iata_id><wmo_id>74486</wmo_id><faa_id>JFK</faa_id><latitude>40.6392</latitude><longitude>-73.7639</longitude><elevation_m>3</elevation_m><site>New York/JF Kennedy Intl</site><state>NY</state><country>US</country><site_type><METAR/><TAF/></site_type></Station><Station><station_id>KJMS</station_id><iata_id>JMS</iata_id><faa_id>JMS</faa_id><latitude>46.9259</latitude><longitude>-98.6704</longitude><elevation_m>455</elevation_m><site>Jamestown Rgnl</site><state>ND</state><country>US</country><site_type><METAR/><TAF/></site_type></Station><Station><station_id>KLAA</station_id><iata_id>LAA</iata_id><faa_id>LAA</faa_id><latitude>38.0718</latitude><longitude>-102.6875</longitude><elevation_m>1129</elevation_m><site>Lamar Muni</site><state>CO</state><country>US</country><site_type><METAR/></site_type></Station><Station><station_id>KLAS</station_id><iata_id>LAS</iata_id><wmo_id>72386</wmo_id><faa_id>LAS</faa_id><latitude>36.0719</latitude><longitude>-115.1634</longitude><elevation_m>662</elevation_m><site>Las Vegas/Reid Intl</site><state>NV</state><country>US</country><site_type><METAR/><TAF/></site_type></Station><Station><station_id>KLAX</station_id><iata_id>LAX</iata_id><wmo_id>72295</wmo_id><faa_id>LAX</faa_id><latitude>33.9382</latitude><longitude>-118.3866</longitude><elevation_m>30</elevation_m><site>Los Angeles Intl</site><state>CA</state><country>US</country><site_type><METAR/><TAF/></site_type></Station><Station><station_id>KLBB</station_id><iata_id>LBB</iata_id><wmo_id>72267</wmo_id><faa_id>LBB</faa_id><latitude>33.6658</latitude><longitude>-101.8233</longitude><elevation_m>996</elevation_m><site>Lubbock Intl Arpt</site><state>TX</state><country>US</country><site_type><NEXRAD/><METAR/><TAF/></site_type></Station><Station><station_id>KLEX</station_id><iata_id>LEX</iata_id><wmo_id>72422</wmo_id><faa_id>LEX</faa_id><latitude>38.0339</latitude><longitude>-84.6114</longitude><elevation_m>294</elevation_m><site>Lexington/Blue Grass Aprt</site><state>KY</state><country>US</country><site_type><METAR/><TAF/></site_type></Station><Station><station_id>KLFT</station_id><iata_id>LFT</iata_id><faa_id>LFT</faa_id><latitude>30.1986</latitude><longitude>-91.9896</longitude><elevation_m>9</elevation_m><site>Lafayette Rgnl</site><state>LA</state><country>US</country><site_type><METAR/><TAF/></site_type></Station><Station><station_id>KLGU</station_id><iata_id>LGU</iata_id><faa_id>LGU</faa_id><latitude>41.7865</latitude><longitude>-111.8519</longitude><elevation_m>1359</elevation_m><site>Logan/Cache Arpt</site><state>UT</state><country>US</country><site_type><METAR/><TAF/></site_type></Station><Station><station_id>KLIT</station_id><iata_id>LIT</iata_id><faa_id>LIT</faa_id><latitude>34.7273</latitude><longitude>-92.2358</longitude><elevation_m>77</elevation_m><site>Little Rock/Clinton Natl</site><state>AR</state><country>US</country><site_type><METAR/><TAF/></site_type></Station><Station><station_id>KLNK</station_id><iata_id>LNK</iata_id><wmo_id>72551</wmo_id><faa_id>LNK</faa_id><latitude>40.8478</latitude><longitude>-96.7647</longitude><elevation_m>357</elevation_m><site>Lincoln Arpt</site><state>NE</state><country>US</country><site_type><METAR/><TAF/></site_type></Station><Station><station_id>KLWB</station_id><iata_id>LWB</iata_id><faa_id>LWB</faa_id><latitude>37.8633</latitude><longitude>-80.3923</longitude><elevation_m>702</elevation_m><site>Lewisburg/Greenbrier Valley Arpt</site><state>WV</state><country>US</country><site_type><METAR/><TAF/></site_type></Station><Station><station_id>KLYH</station_id><iata_id>LYH</iata_id><wmo_id>72410</wmo_id><faa_id>LYH</faa_id><latitude>37.3213</latitude><longitude>-79.2065</longitude><elevation_m>282</elevation_m><site>Lynchburg/Glenn Fld</site><state>VA</state><country>US</country><site_type><METAR/><TAF/></site_type></Station><Station><station_id>KMCI</station_id><iata_id>MCI</iata_id><wmo_id>72446</wmo_id><faa_id>MCI</faa_id><latitude>39.2975</latitude><longitude>-94.7309</longitude><elevation_m>308</elevation_m><site>Kansas City Intl</site><state>MO</state><country>US</country><site_type><METAR/><TAF/></site_type></Station><Station><station_id>KMCO</station_id><iata_id>MCO</iata_id><wmo_id>72205</wmo_id><faa_id>MCO</faa_id><latitude>28.4182</latitude><longitude>-81.3241</longitude><elevation_m>27</elevation_m><site>Orlando Intl</site><state>FL</state><country>US</country><site_type><METAR/><TAF/></site_type></Station><Station><station_id>KMEM</station_id><iata_id>MEM</iata_id><wmo_id>72334</wmo_id><faa_id>MEM</faa_id><latitude>35.0564</latitude><longitude>-89.9864</longitude><elevation_m>78</elevation_m><site>Memphis Intl</site><state>TN</state><country>US</country><site_type><METAR/><TAF/></site_type></Station><Station><station_id>KMHE</station_id><iata_id>MHE</iata_id><faa_id>MHE</faa_id><latitude>43.7743</latitude><longitude>-98.0384</longitude><elevation_m>397</elevation_m><site>Mitchell Muni</site><state>SD</state><country>US</country><site_type><METAR/></site_type></Station><Station><station_id>KMHT</station_id><iata_id>MHT</iata_id><faa_id>MHT</faa_id><latitude>42.9245</latitude><longitude>-71.4377</longitude><elevation_m>68</elevation_m><site>Manchester Rgnl</site><state>NH</state><country>US</country><site_type><METAR/><TAF/></site_type></Station><Station><station_id>KMIA</station_id><iata_id>MIA</iata_id><wmo_id>72202</wmo_id><faa_id>MIA</faa_id><latitude>25.7881</latitude><longitude>-80.3169</longitude><elevation_m>1</elevation_m><site>Miami Intl</site><state>FL</state><country>US</country><site_type><METAR/><TAF/></site_type></Station><Station><station_id>KMKE</station_id><iata_id>MKE</iata_id><wmo_id>72640</wmo_id><faa_id>MKE</faa_id><latitude>42.9549</latitude><longitude>-87.9045</longitude><elevation_m>203</elevation_m><site>Milwaukee/Mitchell Intl</site><state>WI</state><country>US</country><site_type><METAR/><TAF/></site_type></Station><Station><station_id>KMLI</station_id><iata_id>MLI</iata_id><wmo_id>72544</wmo_id><faa_id>MLI</faa_id><latitude>41.4482</latitude><longitude>-90.5237</longitude><elevation_m>174</elevation_m><site>Moline/Quad City Intl</site><state>IL</state><country>US</country><site_type><METAR/><TAF/></site_type></Station><Station><station_id>KMOB</station_id><iata_id>MOB</iata_id><wmo_id>72223</wmo_id><faa_id>MOB</faa_id><latitude>30.6882</latitude><longitude>-88.2459</longitude><elevation_m>67</elevation_m><site>Mobile Rgnl</site><state>AL</state><country>US</country><site_type><NEXRAD/><WFO/><METAR/><TAF/></site_type></Station><Station><station_id>KMOT</station_id><iata_id>MOT</iata_id><faa_id>MOT</faa_id><latitude>48.2520</latitude><longitude>-101.2690</longitude><elevation_m>507</elevation_m><site>Minot Intl</site><state>ND</state><country>US</country><site_type><METAR/><TAF/></site_type></Station><Station><station_id>KMRY</station_id><iata_id>MRY</iata_id><faa_id>MRY</faa_id><latitude>36.5904</latitude><longitude>-121.8488</longitude><elevation_m>51</elevation_m><site>Monterey Rgnl</site><state>CA</state><country>US</country><site_type><METAR/><TAF/></site_type></Station><Station><station_id>KMSN</station_id><iata_id>MSN</iata_id><wmo_id>72641</wmo_id><faa_id>MSN</faa_id><latitude>43.1407</latitude><longitude>-89.3452</longitude><elevation_m>262</elevation_m><site>Madison/Dane Cnty Rgnl</site><state>WI</state><country>US</country><site_type><METAR/><TAF/></site_type></Station><Station><station_id>KMSO</station_id><iata_id>MSO</iata_id><wmo_id>72773</wmo_id><faa_id>MSO</faa_id><latitude>46.9208</latitude><longitude>-114.0938</longitude><elevation_m>974</elevation_m><site>Missoula Intl</site><state>MT</state><country>US</country><site_type><WFO/><METAR/><TAF/></site_type></Station><Station><station_id>KMSP</station_id><iata_id>MSP</iata_id><wmo_id>72658</wmo_id><faa_id>MSP</faa_id><latitude>44.8852</latitude><longitude>-93.2313</longitude><elevation_m>255</elevation_m><site>Minneapolis-St Paul Intl</site><state>MN</state><country>US</country><site_type><METAR/><TAF/></site_type></Station><Station><station_id>KMSY</station_id><iata_id>MSY</iata_id><wmo_id>72231</wmo_id><faa_id>MSY</faa_id><latitude>29.9974</latitude><longitude>-90.2777</longitude><site>New Orleans/Armstrong Intl</site><state>LA</state><country>US</country><site_type><METAR/><TAF/></site_type></Station><Station><station_id>KMTJ</station_id><iata_id>MTJ</iata_id><faa_id>MTJ</faa_id><latitude>38.5054</latitude><longitude>-107.8981</longitude><elevation_m>1755</elevation_m><site>Montrose Rgnl</site><state>CO</state><country>US</country><site_type><METAR/><TAF/></site_type></Station><Station><station_id>KMYR</station_id><iata_id>MYR</iata_id><wmo_id>74791</wmo_id><faa_id>MYR</faa_id><latitude>33.6769</latitude><longitude>-78.9325</longitude><elevation_m>7</elevation_m><site>Myrtle Beach Intl</site><state>SC</state><country>US</country><site_type><METAR/><TAF/></site_type></Station><Station><station_id>KNUW</station_id><iata_id>NUW</iata_id><faa_id>NUW</faa_id><latitude>48.3550</latitude><longitude>-122.6640</longitude><elevation_m>14</elevation_m><site>Whidbey Island(NAS)</site><state>WA</state><country>US</country><site_type><METAR/><TAF/></site_type></Station><Station><station_id>KNYL</station_id><iata_id>YUM</iata_id><faa_id>NYL</faa_id><latitude>32.6600</latitude><longitude>-114.6078</longitude><elevation_m>58</elevation_m><site>Yuma (MCAS)</site><state>AZ</state><country>US</country><site_type><METAR/><TAF/></site_type></Station><Station><station_id>KODO</station_id><iata_id>-</iata_id><faa_id>ODO</faa_id><latitude>31.9250</latitude><longitude>-102.3874</longitude><elevation_m>912</elevation_m><site>Odessa/Schlemeyer Fld</site><state>TX</state><country>US</country><site_type><METAR/></site_type></Station><Station><station_id>KOKC</station_id><iata_id>OKC</iata_id><wmo_id>72353</wmo_id><faa_id>OKC</faa_id><latitude>35.3843</latitude><longitude>-97.6003</longitude><elevation_m>391</elevation_m><site>Oklahoma City/Will Rogers Intl</site><state>OK</state><country>US</country><site_type><METAR/><TAF/></site_type></Station><Station><station_id>KOLS</station_id><iata_id>OLS</iata_id><faa_id>OLS</faa_id><latitude>31.4208</latitude><longitude>-110.8465</longitude><elevation_m>1194</elevation_m><site>Nogales Intl</site><state>AZ</state><country>US</country><site_type><METAR/><TAF/></site_type></Station><Station><station_id>KOMA</station_id><iata_id>OMA</iata_id><wmo_id>72550</wmo_id><faa_id>OMA</faa_id><latitude>41.3119</latitude><longitude>-95.9018</longitude><elevation_m>299</elevation_m><site>Omaha/Eppley Fld</site><state>NE</state><country>US</country><site_type><METAR/><TAF/></site_type></Station><Station><station_id>KONO</station_id><iata_id>ONO</iata_id><faa_id>ONO</faa_id><latitude>44.0142</latitude><longitude>-117.0081</longitude><elevation_m>668</elevation_m><site>Ontario Muni</site><state>OR</state><country>US</country><site_type><METAR/><TAF/></site_type></Station><Station><station_id>KONT</station_id><iata_id>ONT</iata_id><wmo_id>74704</wmo_id><faa_id>ONT</faa_id><latitude>34.0531</latitude><longitude>-117.5769</longitude><elevation_m>279</elevation_m><site>Ontario Intl</site><state>CA</state><country>US</country><site_type><METAR/><TAF/></site_type></Station><Station><station_id>KORD</station_id><iata_id>ORD</iata_id><wmo_id>72530</wmo_id><faa_id>ORD</faa_id><latitude>41.9602</latitude><longitude>-87.9316</longitude><elevation_m>202</elevation_m><site>Chicago/O'Hare Intl</site><state>IL</state><country>US</country><site_type><METAR/><TAF/></site_type></Station><Station><station_id>KORF</station_id><iata_id>ORF</iata_id><wmo_id>72308</wmo_id><faa_id>ORF</faa_id><latitude>36.9037</latitude><longitude>-76.1927</longitude><elevation_m>5</elevation_m><site>Norfolk Intl</site><state>VA</state><country>US</country><site_type><METAR/><TAF/></site_type></Station><Station><station_id>KOTH</station_id><iata_id>OTH</iata_id><faa_id>OTH</faa_id><latitude>43.4194</latitude><longitude>-124.2438</longitude><elevation_m>3</elevation_m><site>North Bend/SW Oregon Rgnl</site><state>OR</state><country>US</country><site_type><METAR/><TAF/></site_type></Station><Station><station_id>KPBI</station_id><iata_id>PBI</iata_id><wmo_id>72203</wmo_id><faa_id>PBI</faa_id><latitude>26.6851</latitude><longitude>-80.0992</longitude><elevation_m>4</elevation_m><site>Palm Beach Intl</site><state>FL</state><country>US</country><site_type><METAR/><TAF/></site_type></Station><Station><station_id>KPDX</station_id><iata_id>PDX</iata_id><wmo_id>72698</wmo_id><faa_id>PDX</faa_id><latitude>45.5958</latitude><longitude>-122.6092</longitude><elevation_m>7</elevation_m><site>Portland Intl</site><state>OR</state><country>US</country><site_type><METAR/><TAF/></site_type></Station><Station><station_id>KPGA</station_id><iata_id>PGA</iata_id><wmo_id>72371</wmo_id><faa_id>PGA</faa_id><latitude>36.9211</latitude><longitude>-111.4487</longitude><elevation_m>1310</elevation_m><site>Page Muni</site><state>AZ</state><country>US</country><site_type><METAR/><TAF/></site_type></Station><Station><station_id>KPHL</station_id><iata_id>PHL</iata_id><wmo_id>72408</wmo_id><faa_id>PHL</faa_id><latitude>39.8733</latitude><longitude>-75.2268</longitude><elevation_m>2</elevation_m><site>Philadelphia Intl</site><state>PA</state><country>US</country><site_type><METAR/><TAF/></site_type></Station><Station><station_id>KPHX</station_id><iata_id>PHX</iata_id><wmo_id>72278</wmo_id><faa_id>PHX</faa_id><latitude>33.4278</latitude><longitude>-112.0037</longitude><elevation_m>338</elevation_m><site>Phoenix/Sky Harbor Intl</site><state>AZ</state><country>US</country><site_type><METAR/><TAF/></site_type></Station><Station><station_id>KPIA</station_id><iata_id>PIA</iata_id><wmo_id>72532</wmo_id><faa_id>PIA</faa_id><latitude>40.6675</latitude><longitude>-89.6842</longitude><elevation_m>200</elevation_m><site>Peoria Intl</site><state>IL</state><country>US</country><site_type><METAR/><TAF/></site_type></Station><Station><station_id>KPIR</station_id><iata_id>PIR</iata_id><wmo_id>72656</wmo_id><faa_id>PIR</faa_id><latitude>44.3819</latitude><longitude>-100.2864</longitude><elevation_m>524</elevation_m><site>Pierre Muni</site><state>SD</state><country>US</country><site_type><METAR/><TAF/></site_type></Station><Station><station_id>KPIT</station_id><iata_id>PIT</iata_id><wmo_id>72520</wmo_id><faa_id>PIT</faa_id><latitude>40.4814</latitude><longitude>-80.2083</longitude><elevation_m>339</elevation_m><site>Pittsburgh Intl</site><state>PA</state><country>US</country><site_type><METAR/><TAF/></site_type></Station><Station><station_id>KPNS</station_id><iata_id>PNS</iata_id><faa_id>PNS</faa_id><latitude>30.4780</latitude><longitude>-87.1869</longitude><elevation_m>34</elevation_m><site>Pensacola Intl</site><state>FL</state><country>US</country><site_type><METAR/><TAF/></site_type></Station><Station><station_id>KPRC</station_id><iata_id>PRC</iata_id><faa_id>PRC</faa_id><latitude>34.6491</latitude><longitude>-112.4223</longitude><elevation_m>1528</elevation_m><site>Prescott/Love Fld</site><state>AZ</state><country>US</country><site_type><METAR/><TAF/></site_type></Station><Station><station_id>KPSC</station_id><iata_id>PSC</iata_id><faa_id>PSC</faa_id><latitude>46.2695</latitude><longitude>-119.1182</longitude><elevation_m>121</elevation_m><site>Pasco/Tri Cities Arpt</site><state>WA</state><country>US</country><site_type><METAR/><TAF/></site_type></Station><Station><station_id>KPVD</station_id><iata_id>PVD</iata_id><wmo_id>72507</wmo_id><faa_id>PVD</faa_id><latitude>41.7225</latitude><longitude>-71.4325</longitude><elevation_m>15</elevation_m><site>Providence/Green Mem</site><state>RI</state><country>US</country><site_type><METAR/><TAF/></site_type></Station><Station><station_id>KPWM</station_id><iata_id>PWM</iata_id><wmo_id>72606</wmo_id><faa_id>PWM</faa_id><latitude>43.6424</latitude><longitude>-70.3044</longitude><elevation_m>15</elevation_m><site>Portland Intl</site><state>ME</state><country>US</country><site_type><METAR/><TAF/></site_type></Station><Station><station_id>KRAP</station_id><iata_id>RAP</iata_id><wmo_id>72662</wmo_id><faa_id>RAP</faa_id><latitude>44.0458</latitude><longitude>-103.0544</longitude><elevation_m>965</elevation_m><site>Rapid City Rgnl</site><state>SD</state><country>US</country><site_type><METAR/><TAF/></site_type></Station><Station><station_id>KRDU</station_id><iata_id>RDU</iata_id><wmo_id>72306</wmo_id><faa_id>RDU</faa_id><latitude>35.8923</latitude><longitude>-78.7820</longitude><elevation_m>121</elevation_m><site>Raleigh-Durham Intl</site><state>NC</state><country>US</country><site_type><METAR/><TAF/></site_type></Station><Station><station_id>KRIC</station_id><iata_id>RIC</iata_id><wmo_id>72401</wmo_id><faa_id>RIC</faa_id><latitude>37.5115</latitude><longitude>-77.3234</longitude><elevation_m>51</elevation_m><site>Richmond Intl</site><state>VA</state><country>US</country><site_type><METAR/><TAF/></site_type></Station><Station><station_id>KRNO</station_id><iata_id>RNO</iata_id><wmo_id>72488</wmo_id><faa_id>RNO</faa_id><latitude>39.5077</latitude><longitude>-119.7683</longitude><elevation_m>1344</elevation_m><site>Reno/Tahoe Intl</site><state>NV</state><country>US</country><site_type><METAR/><TAF/></site_type></Station><Station><station_id>KROC</station_id><iata_id>ROC</iata_id><wmo_id>72529</wmo_id><faa_id>ROC</faa_id><latitude>43.1172</latitude><longitude>-77.6754</longitude><elevation_m>166</elevation_m><site>Rochester Intl Arpt</site><state>NY</state><country>US</country><site_type><METAR/><TAF/></site_type></Station><Station><station_id>KRSW</station_id><iata_id>RSW</iata_id><faa_id>RSW</faa_id><latitude>26.5380</latitude><longitude>-81.7567</longitude><elevation_m>8</elevation_m><site>Ft Myers/SW Florida Intl</site><state>FL</state><country>US</country><site_type><METAR/><TAF/></site_type></Station><Station><station_id>KSAN</station_id><iata_id>SAN</iata_id><wmo_id>72290</wmo_id><faa_id>SAN</faa_id><latitude>32.7364</latitude><longitude>-117.1973</longitude><elevation_m>3</elevation_m><site>San Diego Intl Arpt</site><state>CA</state><country>US</country><site_type><METAR/><TAF/></site_type></Station><Station><station_id>KSAT</station_id><iata_id>SAT</iata_id><wmo_id>72253</wmo_id><faa_id>SAT</faa_id><latitude>29.5443</latitude><longitude>-98.4839</longitude><elevation_m>246</elevation_m><site>San Antonio Intl</site><state>TX</state><country>US</country><site_type><METAR/><TAF/></site_type></Station><Station><station_id>KSAV</station_id><iata_id>SAV</iata_id><wmo_id>72207</wmo_id><faa_id>SAV</faa_id><latitude>32.1313</latitude><longitude>-81.2023</longitude><elevation_m>10</elevation_m><site>Savannah Intl</site><state>GA</state><country>US</country><site_type><METAR/><TAF/></site_type></Station><Station><station_id>KSBA</station_id><iata_id>SBA</iata_id><faa_id>SBA</faa_id><latitude>34.4241</latitude><longitude>-119.8425</longitude><elevation_m>2</elevation_m><site>Santa Barbara Muni</site><state>CA</state><country>US</country><site_type><METAR/><TAF/></site_type></Station><Station><station_id>KSBN</station_id><iata_id>SBN</iata_id><wmo_id>72535</wmo_id><faa_id>SBN</faa_id><latitude>41.7072</latitude><longitude>-86.3163</longitude><elevation_m>236</elevation_m><site>South Bend Rgnl</site><state>IN</state><country>US</country><site_type><METAR/><TAF/></site_type></Station><Station><station_id>KSDF</station_id><iata_id>SDF</iata_id><wmo_id>72423</wmo_id><faa_id>SDF</faa_id><latitude>38.1774</latitude><longitude>-85.7308</longitude><elevation_m>146</elevation_m><site>Louisville Intl</site><state>KY</state><country>US</country><site_type><METAR/><TAF/></site_type></Station><Station><station_id>KSEA</station_id><iata_id>SEA</iata_id><wmo_id>72793</wmo_id><faa_id>SEA</faa_id><latitude>47.4447</latitude><longitude>-122.3144</longitude><elevation_m>115</elevation_m><site>Seattle-Tacoma Intl</site><state>WA</state><country>US</country><site_type><METAR/><TAF/></site_type></Station><Station><station_id>KSFO</station_id><iata_id>SFO</iata_id><wmo_id>72494</wmo_id><faa_id>SFO</faa_id><latitude>37.6196</latitude><longitude>-122.3656</longitude><elevation_m>2</elevation_m><site>San Francisco Intl</site><state>CA</state><country>US</country><site_type><METAR/><TAF/></site_type></Station><Station><station_id>KSGF</station_id><iata_id>SGF</iata_id><wmo_id>72440</wmo_id><faa_id>SGF</faa_id><latitude>37.2398</latitude><longitude>-93.3899</longitude><elevation_m>387</elevation_m><site>Springfield Muni</site><state>MO</state><country>US</country><site_type><NEXRAD/><WFO/><METAR/><TAF/></site_type></Station><Station><station_id>KSHV</station_id><iata_id>SHV</iata_id><wmo_id>72248</wmo_id><faa_id>SHV</faa_id><latitude>32.4473</latitude><longitude>-93.8244</longitude><elevation_m>70</elevation_m><site>Shreveport Rgnl</site><state>LA</state><country>US</country><site_type><NEXRAD/><WFO/><METAR/><TAF/></site_type></Station><Station><station_id>KSJN</station_id><iata_id>SJN</iata_id><faa_id>SJN</faa_id><latitude>34.5184</latitude><longitude>-109.3801</longitude><elevation_m>1747</elevation_m><site>St Johns Ind Arpt</site><state>AZ</state><country>US</country><site_type><METAR/></site_type></Station><Station><station_id>KSLC</station_id><iata_id>SLC</iata_id><wmo_id>72572</wmo_id><faa_id>SLC</faa_id><latitude>40.7707</latitude><longitude>-111.9650</longitude><elevation_m>1286</elevation_m><site>Salt Lake City Intl</site><state>UT</state><country>US</country><site_type><WFO/><METAR/><TAF/></site_type></Station><Station><station_id>KSMF</station_id><iata_id>SMF</iata_id><faa_id>SMF</faa_id><latitude>38.7007</latitude><longitude>-121.5948</longitude><elevation_m>7</elevation_m><site>Sacramento Intl</site><state>CA</state><country>US</country><site_type><METAR/><TAF/></site_type></Station><Station><station_id>KSPG</station_id><iata_id>SPG</iata_id><faa_id>SPG</faa_id><latitude>27.7685</latitude><longitude>-82.6257</longitude><elevation_m>1</elevation_m><site>St Petersburg/Whitted Arpt</site><state>FL</state><country>US</country><site_type><METAR/></site_type></Station><Station><station_id>KSPI</station_id><iata_id>SPI</iata_id><wmo_id>72439</wmo_id><faa_id>SPI</faa_id><latitude>39.8453</latitude><longitude>-89.6840</longitude><elevation_m>179</elevation_m><site>Springfield/Lincoln Capital Arpt</site><state>IL</state><country>US</country><site_type><METAR/><TAF/></site_type></Station><Station><station_id>KSTL</station_id><iata_id>STL</iata_id><wmo_id>72434</wmo_id><faa_id>STL</faa_id><latitude>38.7525</latitude><longitude>-90.3734</longitude><elevation_m>163</elevation_m><site>St Louis/Lambert Intl</site><state>MO</state><country>US</country><site_type><METAR/><TAF/></site_type></Station><Station><station_id>KSYR</station_id><iata_id>SYR</iata_id><wmo_id>72519</wmo_id><faa_id>SYR</faa_id><latitude>43.1111</latitude><longitude>-76.1038</longitude><elevation_m>125</elevation_m><site>Syracuse/Hancock Intl</site><state>NY</state><country>US</country><site_type><METAR/><TAF/></site_type></Station><Station><station_id>KTLH</station_id><iata_id>TLH</iata_id><wmo_id>72214</wmo_id><faa_id>TLH</faa_id><latitude>30.3935</latitude><longitude>-84.3513</longitude><elevation_m>17</elevation_m><site>Tallahassee Intl</site><state>FL</state><country>US</country><site_type><NEXRAD/><METAR/><TAF/></site_type></Station><Station><station_id>KTMK</station_id><iata_id>OTK</iata_id><faa_id>TMK</faa_id><latitude>45.4210</latitude><longitude>-123.8144</longitude><elevation_m>8</elevation_m><site>Tillamook Arpt</site><state>OR</state><country>US</country><site_type><METAR/></site_type></Station><Station><station_id>KTUL</station_id><iata_id>TUL</iata_id><wmo_id>72356</wmo_id><faa_id>TUL</faa_id><latitude>36.1985</latitude><longitude>-95.8782</longitude><elevation_m>196</elevation_m><site>Tulsa Intl Arpt</site><state>OK</state><country>US</country><site_type><METAR/><TAF/></site_type></Station><Station><station_id>KTUS</station_id><iata_id>TUS</iata_id><wmo_id>72274</wmo_id><faa_id>TUS</faa_id><latitude>32.1315</latitude><longitude>-110.9564</longitude><elevation_m>776</elevation_m><site>Tucson Intl Arpt</site><state>AZ</state><country>US</country><site_type><METAR/><TAF/></site_type></Station><Station><station_id>KTYL</station_id><iata_id>TYZ</iata_id><faa_id>TYL</faa_id><latitude>34.4577</latitude><longitude>-110.1118</longitude><elevation_m>1748</elevation_m><site>Taylor Arpt</site><state>AZ</state><country>US</country><site_type><METAR/></site_type></Station><Station><station_id>KTYS</station_id><iata_id>TYS</iata_id><wmo_id>72326</wmo_id><faa_id>TYS</faa_id><latitude>35.8180</latitude><longitude>-83.9857</longitude><elevation_m>300</elevation_m><site>Knoxville/Tyson Arpt</site><state>TN</state><country>US</country><site_type><METAR/><TAF/></site_type></Station><Station><station_id>KWMC</station_id><iata_id>WMC</iata_id><wmo_id>72583</wmo_id><faa_id>WMC</faa_id><latitude>40.9018</latitude><longitude>-117.8081</longitude><elevation_m>1311</elevation_m><site>Winnemucca Muni</site><state>NV</state><country>US</country><site_type><METAR/><TAF/></site_type></Station><Station><station_id>KXNA</station_id><iata_id>XNA</iata_id><faa_id>XNA</faa_id><latitude>36.2897</latitude><longitude>-94.3115</longitude><elevation_m>390</elevation_m><site>Fayetteville/NW Arkansas Rgnl</site><state>AR</state><country>US</country><site_type><METAR/><TAF/></site_type></Station></data></response>